stop_id,stop_name,stop_lat,stop_lon
1,Wilczak,53.1294135492593,17.9572550908939
2,Nakielska - Słoneczna,53.1283560685915,17.9632524445479
3,Nakielska - Wrzesińska,53.1272541854601,17.9695753594742
4,Nakielska - Stawowa,53.1262630728466,17.9761298714811
5,Nakielska - Wrocławska,53.1260701920012,17.9816779520702
6,Rondo Grunwaldzkie,53.1257255324662,17.9878882054908
7,Focha - Opera,53.1251157480111,17.997114732459
8,Plac Teatralny,53.1243360026137,18.0012911554953
9,Rondo Jagiellonów,53.1235703761706,18.007038092338
10,Dworzec Autobusowy,53.1231208112664,18.0183979399606
11,Jagiellońska - Łużycka,53.1219203905781,18.0274175728341
12,Rondo Fordońskie,53.1209137190874,18.0341034805055
13,Fordońska - Bałtycka,53.1206384137236,18.0476871172021
14,tymczasowo ZAWIESZONY,53.1208655851977,18.0581073701881
15,Fordońska - Fabryczna,53.1222177454018,18.0663655963742
17,Fordońska - Wyścigowa,53.1246554820598,18.0760922481488
18,Wyścigowa,53.1253531294658,18.0769344659939
20,Fordońska - Fabryczna,53.1216804250484,18.0645334598961
21,tymczasowo ZAWIESZONY,53.1207185632249,18.0557799109956
22,Fordońska - Bałtycka,53.1207201650599,18.0473042450211
23,Rondo Fordońskie,53.1209696388291,18.033673915632
24,Jagiellońska - Łużycka,53.1219416239541,18.0276432980264
25,Dworzec Autobusowy,53.1232267494944,18.0181213332738
26,Rondo Jagiellonów,53.1236343458011,18.0069977130451
27,Focha - Opera,53.125177834575,17.9971489550551
28,Rondo Grunwaldzkie,53.1258149634859,17.9871917638632
29,Nakielska - Wrocławska,53.1261670681039,17.9810418090349
31,Nakielska - Wrzesińska,53.1273917860522,17.9691064379577
32,Nakielska - Słoneczna,53.1284088165492,17.9633009285576
34,Rondo Jagiellonów,53.1233762644966,18.0086689468175
39,Rondo Toruńskie,53.1169575927852,18.0347813059137
43,Wyżyny,53.1079787827867,18.038108767532
44,Wojska Polskiego - Kładka,53.1101138773045,18.030204183241
45,Wojska Polskiego - Ujejskiego,53.1138288769027,18.0230972340764
46,Wzgórze Wolności,53.1146864325368,18.0176572204895
47,Rondo Kujawskie,53.1146285018539,18.0089395261928
48,Wzgórze Wolności,53.1147065238145,18.0154465850317
49,Wojska Polskiego - Ujejskiego,53.1137375927922,18.0231506092889
50,Wojska Polskiego - Kładka,53.1100712741879,18.0301115176043
51,Wyżyny,53.1079451153124,18.037314362161
55,Rondo Toruńskie,53.117020048563,18.034800655167
61,Glinki,53.0975928487967,18.0412459479713
62,Szpitalna - Solna,53.0990545732161,18.0435155585812
63,Szpitalna - Łomżyńska,53.1023936862961,18.0448123475944
65,Szpitalna - Łomżyńska,53.1024053357638,18.0447085764479
66,Szpitalna - Solna,53.099039673332,18.0433949788219
67,Toruńska - Perłowa,53.1154922061675,18.0453200055959
68,Toruńska - Filmowa,53.114999863545,18.0515477536924
69,Toruńska - Kazimierza Wielkiego,53.115665152471,18.0596063470381
70,Toruńska - Zajezdnia Tramwajowa,53.1160646670083,18.0639992272009
71,Toruńska - Tor awaryjny,53.1176337420196,18.0697610272214
72,Toruńska - Równa,53.1179012759624,18.0764616660626
73,Toruńska - Kielecka,53.1181648690224,18.0829528501153
74,Toruńska - Sporna,53.1181987257502,18.0878880225665
75,Toruńska - Stomil (brama),53.1170250741513,18.0939472023199
76,Stomil,53.1150744981454,18.1053010458105
77,Hutnicza - Nowotoruńska,53.1068190113882,18.1077095201788
78,Łęgnowo,53.1007390145978,18.1053284755323
79,Hutnicza - Nowotoruńska,53.1071082046883,18.1079993781326
80,Stomil,53.1151174308872,18.1053788757714
81,Toruńska - Stomil (brama),53.117140160978,18.0936714722544
82,Toruńska - Sporna,53.1183044353755,18.0876265445929
83,Toruńska - Kielecka,53.1182119876402,18.0825227404482
84,Toruńska - Równa,53.1179409382197,18.0759712295333
85,Toruńska - Tor awaryjny,53.1176561939768,18.0692394665834
86,Toruńska - Filmowa,53.1150487821351,18.0510430397518
87,Toruńska - Perłowa,53.1153430363914,18.0465799143697
88,Kapuściska,53.1025883152056,18.0593050643455
89,Wojska Polskiego - Baczyńskiego,53.1037408772706,18.056099549364
90,Wojska Polskiego - Prezydenta Lecha Kaczyńskiego,53.1064160814912,18.049624557985
91,Rondo Fordońskie,53.1209310874276,18.0362423364867
92,Rondo Fordońskie,53.1209996365358,18.0360229436064
93,Wojska Polskiego - Prezydenta Lecha Kaczyńskiego,53.1064701429142,18.0492697415252
94,Wojska Polskiego - Baczyńskiego,53.103688551468,18.0560360668116
95,Leśne,53.1423275008547,18.0312016612341
96,Sułkowskiego - Czerkaska,53.1400324126791,18.028452715149
97,Gdańska - Powst. Warszawy,53.141634262933,18.0195621933482
98,Gdańska - Artyleryjska,53.138557647313,18.0164151668661
99,Gdańska - Chodkiewicza,53.1347450348005,18.0124993077795
100,Hetmańska - Kaszubska,53.1334415696593,18.003944814565
101,Dworzec Główny,53.1348712160526,17.9932484230883
102,Garbary,53.1260129853915,17.9907636216625
103,Plac Teatralny,53.1243985230916,18.0009516750231
104,Rondo Jagiellonów,53.1227721138878,18.0073112089817
105,Plac Kościeleckich,53.1208282750717,18.0052321385237
106,Rondo Kujawskie,53.1144582375566,18.0092713896057
107,Wzgórze Wolności,53.1142993892729,18.0197972823471
108,Wojska Polskiego - Ujejskiego,53.1127499000938,18.0248597952784
109,Wojska Polskiego - Kładka,53.1094829375064,18.0309667930662
110,Magnuszewska - Modrakowa,53.1068313318098,18.0319756832427
111,Glinki - Stadion BKS Chemik,53.10250150053,18.0300273081156
112,Glinki - Zajęcza,53.0999456091368,18.0346884901204
113,Glinki,53.0974760875006,18.0398333137556
114,Szpitalna - Łomżyńska,53.1025327291269,18.0450014806052
115,Szarych Szeregów,53.1069807039487,18.0472436591556
116,Wojska Polskiego - Prezydenta Lecha Kaczyńskiego,53.1057183605194,18.0505315266635
117,Wojska Polskiego - Baczyńskiego,53.1029363164553,18.0573125665335
118,Kapuściska,53.1027447514643,18.0591667515968
119,Toruńska - Kazimierza Wielkiego,53.1154176499882,18.0594392935338
120,Toruńska - Zajezdnia Tramwajowa,53.1161085323809,18.0643909684329
121,Toruńska - Równa,53.1178619976472,18.0769371816204
122,Toruńska - Kielecka,53.118114409022,18.0824709109746
123,Stomil,53.1149438024889,18.1061734736175
124,Dworzec Łęgnowo,53.1116973150245,18.1140846244187
125,Toruńska - Wypaleniska,53.1046640179572,18.122004049277
126,Toruńska - Przyłubska,53.1003084451619,18.1248560241442
127,Toruńska - Wieża Ciśnień,53.0953610429162,18.1255878281673
128,Plątnowska - Kościół,53.0912214223437,18.1321891749737
129,Plątnowska - Przejazd,53.0844978375945,18.1248896840519
130,Nowotoruńska - Przepompownia,53.0876392361598,18.1162148413767
131,Nowotoruńska - Żółwińska,53.0929125078953,18.1129958555134
132,Spółdzielcza,53.0951150519628,18.1075226741523
133,Łęgnowo,53.0999319271904,18.1048967633303
134,Świetlicowa,53.0959202039806,18.1087161879981
135,Nowotoruńska - Żółwińska,53.0921370551631,18.1134178784859
136,Nowotoruńska - Przepompownia,53.0882749791388,18.1159769959594
137,Plątnowska - Przejazd,53.0839409731217,18.1245207232393
138,Plątnowska - Kościół,53.091447724802,18.132474518406
139,Toruńska - Wieża Ciśnień,53.095414506389,18.1256066463787
140,Toruńska - Przyłubska,53.1007194140398,18.1246168820865
141,Toruńska - Wypaleniska,53.1046628433555,18.1220487936298
142,Toruńska - Kielecka,53.1182105345601,18.0846601601143
143,Toruńska - Równa,53.1178320345485,18.074618169072
144,Toruńska - Zajezdnia Tramwajowa,53.1159736127004,18.0636938103879
146,Wojska Polskiego - Baczyńskiego,53.1039702715722,18.0559215694291
147,Wojska Polskiego - Prezydenta Lecha Kaczyńskiego,53.1056919579531,18.0515607404514
148,Szarych Szeregów,53.1073882743244,18.0474817078113
149,Szpitalna - Łomżyńska,53.1022773726874,18.0447891845646
150,Glinki,53.0975534462111,18.0399732348836
151,Glinki - Zajęcza,53.0996187074735,18.0355171050404
152,Glinki - Stadion BKS Chemik,53.1016401500405,18.0317149109607
153,Magnuszewska - Modrakowa,53.1068310304203,18.032692953121
154,Wojska Polskiego - Kładka,53.1100875622573,18.0305311148547
155,Wojska Polskiego - Ujejskiego,53.1139347017891,18.0231793934229
156,Wzgórze Wolności,53.1149541924385,18.0152546804862
157,Rondo Kujawskie,53.1153124907275,18.0078513942489
158,Nowy Rynek,53.1204132438809,17.9974450698329
159,Garbary,53.1265728781762,17.9913855855742
160,Warszawska - Fredry,53.1332483234746,17.995916719091
161,Fredry - Warszawska,53.1328584658547,17.9967568205279
162,Mazowiecka - Pomorska,53.1327232822474,18.00461239102
163,Gdańska - Chodkiewicza,53.134267846637,18.0121668393962
164,Gdańska - Artyleryjska,53.1385534840591,18.0165793748182
165,Sułkowskiego - Czerkaska,53.1400255726727,18.0287214252687
166,Błonie,53.114854020054,17.9605296967508
167,Szubińska - Żwirki i Wigury,53.1157892928972,17.9663035293872
168,Szubińska - Gnieźnieńska,53.1179628891355,17.9739717118546
169,Piękna - Szubińska,53.1186386513555,17.9793097872962
170,Solskiego - Kossaka,53.1130003162645,17.9839712774332
171,Skorupki - Czackiego,53.1108888467017,17.9817476543103
172,Inowrocławska - Skorupki,53.1077187809981,17.9794211385941
173,Inowrocławska - Zajezdnia,53.1075594497354,17.9847001604702
174,Brzozowa - Bielicka,53.1086719198465,17.9912480182215
175,Brzozowa - Jesionowa,53.1091141363083,18.0026064504719
176,Rondo Kujawskie,53.1122205204783,18.0085022601954
177,Rondo Jagiellonów,53.1230744087292,18.0102922527504
178,Dworzec Autobusowy,53.1227803801274,18.019764331827
179,Rondo Fordońskie,53.1207451292197,18.0371859198915
180,Fordońska - Bałtycka,53.1205540004891,18.0474718637995
181,Most Kazimierza Wielkiego,53.1207317058872,18.0580679628685
182,Fordońska - Fabryczna,53.1221814553024,18.0663779603701
183,Fordońska - Wyścigowa,53.1249678275488,18.0779235252576
184,Dworzec Wschód,53.1265904404003,18.0854102197225
185,Tor Regatowy,53.1279506388267,18.1293895023365
186,Brdyujście,53.1324171789013,18.1373552389273
187,Kaliskiego - Politechnika,53.1426676400913,18.1336607896726
188,Korfantego - Prejsa,53.1492756231996,18.1221005419305
189,Twardzickiego - Łochowskiego,53.152281243903,18.1233958745942
190,Twardzickiego - Kleina,53.1525525626885,18.1308655839249
191,Twardzickiego - Thommee,53.1530311331037,18.1410283802764
192,Twardzickiego - Witosa,53.1545878415535,18.1477995827209
193,Twardzickiego - Przybory,53.1576155416618,18.15096872816
194,Pelplińska - Taterników,53.1611410178286,18.1611326333464
195,Pelplińska - Jarużyńska,53.1651078820959,18.1621127626932
196,Tatrzańskie,53.169368541609,18.1632045102273
197,Pelplińska - Jarużyńska,53.1660849257514,18.1615561348087
198,Pelplińska - Taterników,53.1601698721985,18.1597744285403
199,Twardzickiego - Przybory,53.1575859659449,18.1507271733306
200,Twardzickiego - Witosa,53.1544415760068,18.1475495047072
201,Twardzickiego - Thommee,53.153138142592,18.1407220355177
202,Twardzickiego - Kleina,53.1527227171402,18.1284993479662
203,Twardzickiego - Łochowskiego,53.1526697853495,18.1246956873148
204,Korfantego - Prejsa,53.1485973414085,18.1222457584153
205,Kaliskiego - Politechnika,53.1443651722246,18.1320344962714
206,Tor Regatowy,53.1281080928496,18.1281898931623
207,Dworzec Wschód,53.1267717435162,18.0829264505213
208,Fordońska - Wyścigowa,53.124760009098,18.0758754687532
209,Fordońska - Fabryczna,53.1225476914769,18.0668226251366
211,Fordońska - Bałtycka,53.1208949392064,18.0457470233284
212,Rondo Fordonskie,53.1210259375247,18.0332294278925
213,Dworzec Autobusowy,53.1233846548023,18.0179231147774
214,Rondo Kujawskie,53.1136062093031,18.007403403069
215,Brzozowa - Jesionowa,53.1089701185968,18.0047483746628
216,Brzozowa - Bielicka,53.1092460163966,17.9920201580461
217,Inowrocławska - Zajezdnia,53.1076428843801,17.9828080972337
218,Inowrocławska - Skorupki,53.1078638513977,17.9775781526166
219,Skorupki - Czackiego,53.1101972279012,17.9806387091321
220,Solskiego - Kossaka,53.1131742488295,17.9838488193433
221,Szubińska - Piękna,53.1191708623187,17.9774482646418
222,Szubińska - Gnieźnieńska,53.1175493728357,17.9714469909818
223,Szubińska - Żwirki i Wigury,53.1162019186217,17.9667056187905
224,Geodetów - Pienińska,53.1737078532223,18.1694510622934
225,Łoskoń,53.1728973384621,18.1745549256897
226,Bora-Komorowskiego - Braci Bażańskich,53.1691705896477,18.1750278877738
227,Bora-Komorowskiego - Gieryna,53.1665844889454,18.1748817144886
228,Bora-Komorowskiego - Kiedrowskiego,53.1627733531231,18.1748096777431
230,Piłsudskiego - Swobodna,53.1589407797816,18.1725067087915
231,Niepodległości,53.1591108474854,18.1664595299974
232,Wyzwolenia - Swobodna,53.1561949831265,18.1678905014449
233,Fordon Rynek,53.1493585163086,18.1733554474636
234,Fordońska - Wiadukt,53.1468097734898,18.1647160993458
235,Dworzec Fordon,53.1454182989484,18.1598871386612
237,Bajka,53.1516963419445,18.1527340158328
238,Andersa - Kleeberga,53.1502956656474,18.1444935474491
239,Akademicka - Igrzyskowa,53.1489977900317,18.1364256790522
241,Dworzec - Akademia,53.1389534725455,18.1360522445984
242,Fordońska - Traktorzystów,53.1365284481288,18.1270524505478
243,Fordońska - Wiślana,53.1324189828417,18.1116066120926
244,Fordońska - Sochaczewska,53.1302542417788,18.1015219586471
245,Skłodowskiej-Curie - Łęczycka,53.1256637160383,18.052662536117
246,Bałtycka - Skłodowskiej-Curie,53.1274985638686,18.04844198728
247,Głowackiego - Bałtycka,53.1312232842072,18.0469713911873
248,Głowackiego - Gajowa,53.1317210209675,18.0436872305871
249,Powst. Wielkopolskich - Wyszyńskiego,53.1301429049135,18.0385817488027
250,Powst. Wielkopolskich - Lelewela,53.1293310901842,18.0277444805131
251,Rondo Wielkopolskie,53.1294424037955,18.0208896226927
252,Paderewskiego,53.1301875630963,18.0131371813031
253,Rondo Jagiellonów,53.1238337982402,18.0065781139222
254,Focha - Opera,53.1254790068213,17.9966167790182
255,Dworzec Główny,53.134743731482,17.9925965709555
256,Żeglarska - Ludwikowo,53.13819027689,17.9774483354345
257,Saperów - Ludwikowo,53.1396142870789,17.9837830223339
258,Saperów - Zakątek,53.1428052683194,17.9791736045042
259,Saperów - Czołgistów,53.1445564802277,17.9767522912688
260,Saperów - Komandosów,53.1476918965835,17.9729157962925
261,Saperów - Kąpielisko,53.1536127779134,17.9698844232198
262,Smukalska - Błądzimska,53.1673089244741,17.9720279019749
263,Piaski,53.1711116304364,17.9695521694005
264,Smukalska - Błądzimska,53.1677248293652,17.9715777978545
265,Saperów - Kąpielisko,53.1546080192258,17.9689209270045
266,Saperów - Komandosów,53.1475852905777,17.9728635549783
267,Saperów - Czołgistów,53.1450816046594,17.9758912332748
268,Saperów - Zakątek,53.1432204424714,17.9783947333108
269,Saperów - Ludwikowo,53.1397792500811,17.9833009539026
270,Żeglarska - Ludwikowo,53.1377822092964,17.9779434900557
271,Rondo Jagiellonów,53.1242473954357,18.0087148846009
272,Markwarta - 3 Maja,53.126770971978,18.0106255330763
273,Rondo Ossolińskich,53.1258301201875,18.0179450732021
274,Rondo Wielkopolskie,53.1291681977946,18.0231878252181
275,Powst. Wielkopolskich - Lelewela,53.1294543861873,18.0299659639098
276,Powst. Wielkopolskich - Wyszyńskiego,53.1301099376778,18.0402241062091
277,Głowackiego - Gajowa,53.1316134959815,18.0440235265761
278,Głowackiego - Bałtycka,53.1311386729058,18.0471149210481
279,Skłodowskiej-Curie - Bałtycka,53.1259429285903,18.0491391227774
280,Skłodowskiej-Curie - Łęczycka,53.1252185698311,18.0545894204753
281,Fordońska - Sochaczewska,53.1304432713915,18.1035840128642
282,Fordońska - Wiślana,53.132387362371,18.112471585658
283,Fordońska - Łowicka,53.1348392041362,18.1222043195615
284,Fordońska - Traktorzystów,53.1363855715315,18.1273561043407
285,Akademicka - Kaliskiego,53.1478422451767,18.1304478620453
286,Akademicka - Igrzyskowa,53.1487488328796,18.1380230457022
287,Andersa - Kleeberga,53.1508747279249,18.1460617442821
288,Bajka,53.1516237659949,18.1537758680155
289,Brzechwy - Szafirowa,53.1503847532638,18.1547171793749
290,Dworzec Fordon,53.1453064340423,18.1566481121796
291,Fordońska - Wiadukt,53.1470560775589,18.1662749068405
292,Fordon Rynek,53.1499143779583,18.1730823272599
293,Wyzwolenia - Styki,53.1525715605527,18.1708997748273
295,Niepodległości,53.1601575631872,18.1663271580188
296,Piłsudskiego - Swobodna,53.1587193979471,18.172714803062
297,Bora-Komorowskiego - Kiedrowskiego,53.1638308533064,18.1749476494452
298,Bora-Komorowskiego - Gieryna,53.1667229144786,18.1750864857773
299,Bora-Komorowskiego - Braci Bażańskich,53.1701688473769,18.1750268187664
300,Łoskoń,53.1729019305842,18.1747199033729
301,Rondo Grunwaldzkie,53.1268466307017,17.9858580304446
302,Grunwaldzka - Kanałowa,53.1301412321612,17.9778333887222
303,Grunwaldzka - Kraszewskiego,53.1335519392337,17.9690978308868
304,Rondo Maczka,53.1377784558644,17.9644097805383
305,Orlicza - Nad Torem,53.1408537348019,17.9611670490857
306,Wiejska - Krajeńska,53.1419444467337,17.9552748864677
307,Wiejska - Chojnicka,53.146539535236,17.9567273350867
310,Opławiec - Koronowska,53.168431162849,17.9525915014026
311,Opławiec - Kolonijna,53.1736120056692,17.9558060855506
312,Opławiec - Wypoczynkowa,53.1780316579844,17.9574423036686
313,Opławiec - Meysnera,53.1855797880127,17.9591147603633
314,Opławiec - Przedszkole,53.1869467783389,17.960556349862
315,Opławiec - Elektrownia,53.1908407017862,17.9641636776521
316,Opławiec - Biwakowa,53.1953892101329,17.9692843911248
317,Smukała,53.192055128628,17.9710003267997
318,Opławiec - Biwakowa,53.1956929092777,17.9690059091211
319,Opławiec - Elektrownia,53.1910288487741,17.9641916375054
320,Opławiec - Przedszkole,53.186389708788,17.9598143139394
321,Opławiec - Meysnera,53.1850264859524,17.9585826142795
322,Opławiec - Wypoczynkowa,53.1775839128781,17.957366578636
323,Opławiec - Kolonijna,53.173169453064,17.9555212154044
324,Opławiec - Koronowska,53.1674045409949,17.9515632568611
326,Wiejska - Deszczowa,53.1497183570837,17.9576339511868
327,Wiejska - Chojnicka,53.1476486301381,17.956968111167
328,Krajeńska - Wiejska,53.1414406853782,17.9556440734451
329,Nad Torem - Orlicza,53.1401923112969,17.9628114263755
330,Rondo Maczka,53.1378296127583,17.963800187957
331,Grunwaldzka - Kraszewskiego,53.1329442077594,17.970027805754
332,Grunwaldzka - Kanałowa,53.129387193052,17.9792165312098
333,Rondo Grunwaldzkie,53.1255807563194,17.9882818034614
334,Plac Poznański,53.1222502015178,17.989485686991
335,Rondo Grunwaldzkie,53.1258921126783,17.984476216184
336,Nakielska - Wrzesińska,53.1270350776532,17.9704273628554
338,Rondo Maczka,53.136746870252,17.9621405138521
339,Grunwaldzka - Flisacka,53.1371511204623,17.9574578887647
340,Grunwaldzka - Filtrowa,53.1398359697414,17.9478321423684
342,Grunwaldzka - Przejście,53.1454201490089,17.9281729490296
343,Kolbego - Grunwaldzka,53.148275090539,17.9199462050445
344,Kolbego - Kogucia,53.1547764316973,17.9170217080843
345,Kolbego - Wielorybia,53.158578673466,17.9123125817649
346,Rekinowa,53.1600248799809,17.9087000702336
347,Kolbego - Wielorybia,53.1578315873608,17.9134438843618
348,Kolbego - Kogucia,53.1549158537155,17.9168366881479
349,Grunwaldzka - Kolbego,53.1479421865517,17.9192206052911
350,Ostromecko Wybudowanie,53.1393574990811,18.2012424370624
351,Nakielska - Lisia,53.134593546983,17.9076237444326
352,Nakielska - Tarnowska,53.1339138800002,17.9159213272178
353,Nakielska - Żywiecka,53.1327390540643,17.9264128908827
354,Nakielska - Wiśniowa,53.1321873633705,17.9353017141655
355,Nakielska - Pijarów,53.1319759576039,17.9413129288403
356,Nakielska - Widok,53.1308328598675,17.9486208815359
357,Nakielska - Wrzesinska,53.1271666491117,17.969479617777
358,Rondo Grunwaldzkie,53.1244965102484,17.9859790534943
359,Plac Poznański,53.1216252496022,17.9882314574296
360,Nowy Rynek,53.1201038438713,17.9979467098654
361,Zbożowy Rynek,53.1196484320733,18.0038792085862
362,Czyżkówko,53.1443649907306,17.9494137892091
363,Deszczowa - Wichrowa,53.1485598822243,17.9506886653276
365,Plac Poznański,53.1227504439518,17.9867548746964
366,Deszczowa - Wiejska,53.1500855398222,17.9569711203465
367,Deszczowa - Wichrowa,53.148474460856,17.9501443265401
368,Szubińska - Piękna,53.1195382360197,17.9796560457508
369,Rondo Ossolińskich,53.1260815785908,18.0176038995594
370,Plac Weyssenhoffa,53.1290861290305,18.0154373133694
371,UKW,53.1319981182057,18.0211736947224
372,Sułkowskiego - Kamienna,53.1368660250929,18.0249549130926
373,Sułkowskiego - Kamienna,53.1353498616149,18.0233978377125
374,UKW,53.1308445489467,18.0212721326269
376,Zbożowy Rynek,53.1199751846188,18.0026912173268
377,Glinki - Polon,53.0942972007862,18.0449274336004
378,Glinki - Eltra,53.0918565183652,18.0443665847768
379,Glinki BFM,53.089385466716,18.0439380984069
380,Glinki - Eltra,53.0916926492244,18.0444446388699
381,Glinki - Polon,53.0951929414133,18.0443632678047
382,Mickiewicza - Teatr Polski,53.1310729590214,18.0129748944197
384,Plac Piastowski,53.1319469086774,17.9968877198378
386,Morska,53.1296979807629,18.0552512369235
387,Rondo Wielkopolskie,53.1283093214018,18.0212436698666
388,Rondo Ossolińskich,53.1270526309604,18.0161918769665
389,Jagiellońska - Piotrowskiego,53.1234410660493,18.0142794469101
390,Skorupki,53.1082483268289,17.9765885502538
392,Ogińskiego - Moniuszki,53.1265702278374,18.0206730838761
393,Belma,53.1251547501788,17.898644366633
394,Łochowska,53.1306247295054,17.8989080979985
395,Nakielska - Notecka,53.1346214923634,17.9105264673935
396,Nakielska - Iglasta,53.1332831610392,17.920738095934
398,Nakielska - Stawowa,53.1263666744983,17.9759426830192
399,Nakielska - Widok,53.1311893300604,17.9472996512295
400,Nakielska - Pijarów,53.1320673321748,17.9405267186924
401,Nakielska - Wiśniowa,53.1323115212339,17.9342784912888
402,Nakielska - Żywiecka,53.1329529382777,17.9246630714614
403,Nakielska - Tarnowska,53.1338259826908,17.9173059544876
404,Nakielska - Notecka,53.1346158614983,17.9111241969746
405,Nakielska - Lisia,53.1337796014369,17.9052361655888
406,Łochowska,53.1302975308737,17.8990505226909
407,Nad Torem - Orlicza,53.1420659412485,17.9630451551228
408,Nad Torem - Karolewska,53.1470724436307,17.9624178201669
409,Opławiec - Internat,53.1949461231876,17.966857908641
410,Nad Torem - Chmurna,53.150185569398,17.9598200860588
411,Nad Torem - Karolewska,53.1458773628781,17.9623803815001
412,Skłodowskiej-Curie - Jurasza,53.1262227286653,18.0307999352265
413,Skłodowskiej-Curie - Gajowa,53.1265251174294,18.0425573121895
414,Skłodowskiej-Curie - Bałtycka,53.1263589621777,18.0469409841185
415,Skłodowskiej-Curie - Gajowa,53.1266072347132,18.0421594541849
416,Skłodowskiej-Curie - Jurasza,53.126253227891,18.0303087226979
448,Glinki - Cmentarna,53.1092393642151,18.0186205447002
479,Podkowa,53.1762109092853,18.0153161661161
482,Garbary,53.1257468703457,17.9927633789644
540,Gdańska - Jeździecka,53.1717213605972,18.0517430183982
638,Bielawy,53.1324273337,18.0332854013821
646,Bielawy koniec,53.1321743087586,18.0336862326392
720,Czerkaska - Sułkowskiego,53.1401622050128,18.0265326397791
728,Kamienna - Sułkowskiego,53.1358691010196,18.0252586658477
799,Kazimierza Wielkiego - Toruńska,53.115224316224,18.058214883278
800,Błonie,53.1147799739563,17.9606142823246
802,Zaświat - Artyleryjska,53.1395778104402,18.0013224679483
803,Zaświat - Artyleryjska,53.1396365670988,18.0011321539513
804,Rycerska,53.1372617415013,17.9990224785894
805,Plac Poznański,53.1216881859986,17.9860832343435
806,Mokra,53.1103029761509,18.0708674562313
807,Chemiczna - Ogrodnictwo,53.1101387829543,18.0723502348886
808,Wyżyny,53.1081265525266,18.037252436966
811,Wyżyny,53.1078114878934,18.03832112581
812,Kapuściska,53.1021380260423,18.0603787974683
813,Chemiczna - Ogrodnictwo,53.1088798459266,18.0737399241311
814,Barwna,53.1247536612722,17.9634678870232
815,Władysława IV - Czerwonego Krzyża,53.123469135204,17.9608829622568
816,Władysława IV - Stawowa,53.1202792918299,17.9633093732698
817,Żwirki i Wigury - Jaskółcza,53.1111939151354,17.9709935276788
818,Rondo Inowrocławskie,53.1091110507717,18.0087782122173
819,Bałtycka - Głowackiego,53.1301423989414,18.0494964628824
820,Morska,53.1297500911434,18.0532215167255
821,Morska,53.1295852804955,18.0554376063001
822,Bałtycka - Głowackiego,53.1298866713543,18.0492989223221
823,Żwirki i Wigury - Jaskółcza,53.1118888489159,17.9705333359553
824,Szubińska - Żwirki i Wigury,53.1160522361829,17.9662170174879
825,Władysława IV - Stawowa,53.1206121922927,17.9633023906383
826,Władysława IV - Czerwonego Krzyża,53.1237227262743,17.9608107096416
827,Leśne,53.1419144963911,18.0304696383265
828,Rondo Skrzetuskie,53.1261961676748,18.0367781848822
829,Fordońska - Kapliczna,53.1292474357111,18.0980553806526
830,Dworzec - Akademia,53.1392784994073,18.1380500331505
831,Fordońska - Wyszogrodzka,53.1421155149479,18.1484422220173
832,Dworzec Fordon,53.1440245138427,18.1554771250623
833,Wyzwolenia - Styki,53.1526709092259,18.1712212628089
834,Dworzec Fordon,53.1447473022506,18.1573848515312
835,Fordońska - Wyszogrodzka,53.1421684022638,18.1478029718782
836,Fordońska - Kapliczna,53.1291891496153,18.0968401059167
837,Rondo Fordońskie,53.1218865808696,18.0358014680794
838,Rondo Skrzetuskie,53.1278057334405,18.038192478025
839,Powst. Wielkopolskich - Wyszyńskiego,53.130027007933,18.0360766409168
840,Leśne,53.1422736410981,18.0311978659667
842,Glinki - Zelwerowicza,53.1063793275219,18.0235905108965
843,Magnuszewska,53.1047422349477,18.027495214949
844,Magnuszewska,53.1048407546624,18.0260975111656
845,Glinki - Zelwerowicza,53.1073093643498,18.0230879375828
846,Glinki - Cmentarna,53.1091325575597,18.0192855528892
849,Dworzec Główny,53.1346947165013,17.9927576461605
850,Przemysłowa - Portowa,53.1262219456212,18.0964770987216
851,Przemysłowa - Os. Rzemieślnicze,53.1253588682366,18.1023353123576
852,Przemysłowa - Tartak,53.1240030162751,18.1091444056573
853,Przemysłowa,53.11990682633,18.1141253533806
854,Przemysłowa - Tartak,53.1233875893089,18.1103258212831
855,Przemysłowa - Os. Rzemieślnicze,53.1256674170891,18.1005037048994
856,Przemysłowa - Portowa,53.1264964888924,18.0949120820493
857,Rondo Toruńskie,53.1158936500826,18.0334806863718
858,Rondo Fordońskie,53.1220515296135,18.0349759639402
859,Rondo Toruńskie,53.1162753893967,18.0329694940171
860,Rejewskiego - Auchan,53.1392254244183,18.114745963872
862,Akademicka - Romanowskiej,53.1446119601414,18.1185312779404
864,Akademicka - Romanowskiej,53.1444360691429,18.1166638598284
865,Rejewskiego - Akademicka,53.1415807160844,18.110310071097
866,Rejewskiego - Auchan,53.1384967844386,18.1154409538007
868,Nad Wisłą,53.1579482632282,18.1783583798397
869,Niepodległości,53.1594186484954,18.1650308515837
870,Andersa - Kasztelańska,53.1537581445303,18.1604401918988
872,Andersa - Kasztelańska,53.1545822573666,18.1615779406379
874,Grunwaldzka - Chojnicka,53.1387765770636,17.9517523697081
875,Niklowa,53.1469401245971,17.8998879223681
876,Srebrna - Spiżowa,53.1437480736366,17.9006149589358
877,Srebrna - Stalowa,53.1423576652148,17.9074754843965
878,Podmiejska - Kruszyńska,53.1443072569092,17.9145319443798
879,Grunwaldzka - Kolbego,53.1472254465632,17.9213108370647
880,Grunwaldzka - Przejście,53.1449482796572,17.9294420361701
882,Grunwaldzka - Filtrowa,53.1390836631406,17.9502480825499
883,Grunwaldzka - Flisacka,53.1366845822083,17.9588613726631
884,Mickiewicza - Teatr Polski,53.1309821518364,18.0126545472424
885,Tatrzańskie,53.1694168358615,18.1634175874263
888,Nowotoruńska - Plątnowska,53.0845935279002,18.1188474617262
889,Nowotoruńska - Plątnowska,53.0837786513382,18.1190573491402
890,Dworzec Łęgnowo,53.1117511708733,18.1140885190399
891,Zaświat - Cmentarz,53.142616292715,18.0045705071305
892,Powst.Warszawy - Skromna,53.1436949263825,18.0085045690614
893,Powst.Warszawy - Szpital Woj.,53.1430816986975,18.014967578902
894,Czerkaska - Gdańska,53.1420792129003,18.0211637823373
895,Czerkaska - Sułkowskiego,53.140112522061,18.026364638275
896,Rondo Inowrocławskie,53.1071108754636,18.0078614248772
897,Jana Pawła II - Ziemska,53.1036363708363,18.0079923756953
898,Jana Pawła II - Wąbrzeska,53.0972255149526,18.0086653226324
899,Port Lotniczy,53.0939481019341,17.9981435389156
900,Jana Pawła II - Wąbrzeska,53.095200057074,18.0087479930243
901,Jana Pawła II - Ziemska,53.1042489844864,18.0083041196169
902,Dworzec Autobusowy,53.1236362018498,18.0197047739322
903,Powst.Warszawy - Gdańska,53.1427516598637,18.0191171692739
904,Powst.Warszawy - Szpital Woj.,53.1431242091499,18.0154192419619
905,Powst.Warszawy - Skromna,53.1437804575911,18.009034022416
906,Zaświat - Cmentarz,53.1420448605632,18.0040520129818
908,Matki Teresy z Kalkuty - Akademicka,53.1430781393275,18.1097901774653
909,Centrum Onkologii,53.147663251411,18.1132778728642
910,Brzechwy - Szelburg-Zarembiny,53.148166869358,18.1559456099543
911,Wyzwolenia - Swobodna,53.157305490634,18.1673888294453
913,Wyzwolenia - Derdowskiego,53.1660539799276,18.1644121141117
914,Wyzwolenia - Derdowskiego,53.1665017203609,18.1641457857509
916,Brzechwy - Szelburg-Zarembiny,53.1484126407151,18.1561730657633
917,Centrum Onkologii,53.1475266826525,18.1123106723563
918,Zamczysko - Armii Krajowej,53.1632256807928,18.0533992577164
919,Zamczysko - Gdańska,53.1649915467328,18.0469555672936
920,Myślęcinek,53.161517814482,18.0393177955815
921,Las Gdański,53.1492368470579,18.0272011446578
926,Las Gdański,53.1502653145534,18.0284851919731
927,Zamczysko - Gdańska,53.164839892042,18.0472590562327
928,Armii Krajowej - Zamczysko,53.1632581670845,18.0552869389516
929,Skandynawska - Ikea,53.1313454917836,18.1189453835863
930,Więcka - Łowicka,53.1317260056714,18.1232942555826
932,Rondo Jagiellonów,53.1244269322216,18.008727433576
934,Błonie,53.114861204666,17.9609636270359
935,Skorupki,53.1084503517428,17.9774991467889
936,Zbożowy Rynek,53.1197383316418,18.0031679800241
937,Plac Kościeleckich,53.1205296070302,18.0042396556538
938,Plac Kościeleckich,53.1208358142809,18.004933698296
940,Toruńska - Kazimierza Wielkiego,53.1155258248649,18.0569807766542
941,Toruńska - Zajezdnia Tramwajowa,53.1160906901127,18.0636871940633
942,Nowy Rynek,53.1204679039862,17.9970602231335
943,Kamienna - Sułkowskiego,53.1357199133397,18.0251135941674
944,Kamienna - Wyszyńskiego,53.1338641275363,18.0379473408761
945,Kamienna - Gajowa,53.1330298787784,18.0441984848293
946,Dworzec Bielawy,53.1309721875924,18.0560593986972
947,Dworzec Bielawy,53.1316317498041,18.0527868345974
948,Kamienna - Gajowa,53.1334760077696,18.0422263620727
949,Kamienna - Wyszyńskiego,53.1345245598256,18.0349734212641
950,Błonie,53.1145331318834,17.9607766629531
951,Białe Błota - Urząd Gminy,53.0994899312048,17.9188801069521
952,Białe Błota - Kapliczna,53.0968858591311,17.9029274374582
953,Lipniki - Wiadukt,53.0848995469022,17.8721598200706
954,Lipniki - STW,53.0852413294027,17.862086225237
955,Murowaniec - Strusia,53.0889226289797,17.8537121778141
956,Lipniki - STW,53.0851196016533,17.8634073938829
957,Lipniki - Wiadukt,53.0846246310664,17.8690200372453
958,Białe Błota - Urząd Gminy,53.0997558112713,17.9208702889054
959,Solskiego - Bielicka,53.1121418017298,17.9927294828021
960,Solskiego - Ugory,53.1140821118532,18.0006661133345
961,Rondo Kujawskie,53.1146137287556,18.0063229136223
962,Solskiego - Ugory,53.1134485465442,17.9976178726803
963,Solskiego - Bielicka,53.1121655781195,17.9899961524877
964,Las Gdański,53.1494729605343,18.0249889678468
965,Stadion Zawisza,53.1456051663913,18.023610121503
966,Stadion Zawisza,53.1455839271801,18.023384273361
967,Gdańska - Powst. Warszawy,53.1419715895055,18.0197354288791
968,Gdańska - Powst. Warszawy,53.1420661654112,18.0199065813603
969,Gdańska - Artyleryjska,53.1381201625726,18.0159358630319
970,Gdańska - Artyleryjska,53.1380626227366,18.01572246851
971,Gdańska - Cieszkowskiego,53.1300687799912,18.0078808684511
972,Gdańska - Cieszkowskiego,53.130519051059,18.0082113730506
973,Plac Wolności,53.1266799665256,18.0042652618174
974,Plac Wolności,53.1264103512783,18.003902587213
975,Gdańska - Dworcowa,53.1253141737433,18.0031533435684
976,Gdańska - Dworcowa,53.125155980403,18.003007758204
977,Chodkiewicza - Paderewskiego,53.1328122021835,18.0170889948069
978,Chodkiewicza - Paderewskiego,53.1329532882065,18.0168446928454
979,UKW,53.1317114796566,18.0204209149799
980,UKW,53.1314566189543,18.0219580434344
981,Chodkiewicza - Lelewela,53.1317866156446,18.0287844731829
982,Chodkiewicza - Lelewela,53.1318465551436,18.0285494559594
983,Meysnera - Opławiec,53.1855253660376,17.9580480929257
984,Sanatorium,53.1865015494692,17.9462433283182
985,Brdyujście,53.1323590716929,18.1371715679966
986,Tatrzańskie,53.1693883212523,18.1634753516499
987,Błonie,53.1146516929534,17.9607100847275
992,Zajezdnia Tramwajowa     ,53.1161075297961,18.0658258008956
995,Pileckiego - Żeglarska,53.1388168233468,17.9782842826446
997,Pileckiego - Kmicica,53.13882001246,17.9881993345653
998,Pileckiego - Kmicica,53.1389342142523,17.985799583889
999,Pileckiego - Rynkowska,53.1386348102229,17.9934205326539
1000,Pileckiego - Rynkowska,53.1386727347958,17.9919127687113
1001,Pileckiego - Cmentarz,53.1390280916769,17.9981586004828
1002,Wyzwolenia - Komisariat,53.1718119344389,18.163983057408
1003,Wyzwolenia - Komisariat,53.1716344109785,18.1638951518163
1004,Podmiejska - Kruszyńska,53.1439468560503,17.914193449703
1006,Chemiczna - Szczerby,53.1058562841592,18.0949679730432
1007,Chemiczna - Energetyczna,53.1068528974924,18.0894954352502
1008,Chemiczna - Energetyczna,53.1067796018314,18.0898936595091
1009,Chemiczna - Eurogaz,53.105872055138,18.0749449013425
1010,Chemiczna - Eurogaz,53.1057171457366,18.0725877382724
1011,Chemiczna - Szczerby,53.1055823896513,18.0954713105635
1012,Stroma - Kossaka,53.1147526168504,17.9872463386946
1014,Stroma - Kossaka,53.1156679289769,17.9866073541505
1016,Bielicka - Solskiego,53.1130007109795,17.9914739640835
1017,Inwalidów - Harcerska,53.1288581732029,18.0832702791216
1018,Inwalidów - R.O.D.-Wyczólkowskiego,53.129101830337,18.0776809258597
1019,Inwalidów - R.O.D.-Makrum,53.1301384206668,18.0702791448141
1020,Dworzec Bielawy (Inwalidów),53.1323831480943,18.0546942543137
1021,Łowicka - Szkoła,53.1305499341875,18.1252722954616
1022,Łowicka - Szkoła,53.1311423817856,18.1249714184542
1023,Witebska - Wschodnia,53.1293328451054,18.1322261877769
1024,Witebska - Wschodnia,53.1296917510625,18.1329400984677
1027,Wyszogrodzka - Opalowa,53.1354515489199,18.1416439721451
1028,Wyszogrodzka - Opalowa,53.1351121376937,18.141215435265
1029,Białe Błota - Kapliczna,53.0967896217109,17.9050274369066
1030,Białe Błota - Sosnowa,53.095254157863,17.8938690354062
1031,Kruszyn Krajeński - Jasiniecka,53.0903279627756,17.8915814910242
1032,Lipniki - Akacjowa,53.0885330361434,17.8847694527654
1033,Kruszyn Krajeński - Słoneczna,53.0864458998671,17.8796113104942
1034,Lipniki - Wierzbowa,53.0872042799289,17.8802295458465
1035,Kruszyn Krajeński - Łąkowa,53.0850681200956,17.8748594256234
1036,Murowaniec - Strusia,53.0882905484333,17.8534462856593
1037,Murowaniec - Kalinowskiego,53.0937887769394,17.8540343813936
1038,Strzyżawa,53.1359947840428,18.1854696046127
1039,Strzyżawa,53.1363707310509,18.1858713019674
1040,Ostromecko Wybudowanie,53.1398618553816,18.2045552758757
1041,Ostromecko,53.1463586756059,18.2084198748636
1042,Ostromecko,53.1461669777562,18.2085252369069
1043,Lisi Ogon - Bydgoska - Spokojna 1,53.1272023966138,17.8839517470615
1044,Podkowa,53.1762064125924,18.0140735363086
1045,Jeździecka - Dżokejowa,53.1762229240659,18.0187446025702
1046,Jeździecka - Dżokejowa,53.1762209105903,18.0191785233195
1047,Jeździecka - Hipiczna,53.1755996387798,18.0326504939123
1048,Jeździecka - Hipiczna,53.1756099778382,18.0329505737698
1049,Jeździecka - Ogród Botaniczny,53.1757030083136,18.0451557028445
1050,Jeździecka - Ogród Botaniczny,53.1755307282797,18.0455625829002
1051,Jeździecka - Gdańska,53.1727781124714,18.0515636396752
1052,Gdańska - Jeździecka,53.1718757081544,18.051334924579
1055,Las Gdański,53.1496955888568,18.0257824666143
1056,Modrzewiowa - Gdańska,53.1454309140303,18.0255123624664
1057,Modrzewiowa - Gdańska,53.1451430094729,18.0262249972489
1058,Leśne,53.1433897853684,18.0311568682188
1059,Błonie,53.1146319452066,17.961142161022
1060,Garbary,53.1256791506958,17.9929530200356
1062,Garbary,53.1254438014356,17.9937289994259
1063,Srebrna - Stalowa,53.1426615054877,17.9064491313148
1064,Srebrna - Spiżowa,53.1435874165446,17.9031466204746
1065,Spiżowa - Ołowiana,53.1472133583038,17.9052759475053
1066,Flisacka - Grunwaldzka,53.1367022584997,17.9574270364426
1067,Dworzec Zachód,53.1360580585359,17.9464219047842
1068,Dworzec Zachód,53.1359997582567,17.9465973531442
1069,Mińska - Studzienna,53.1363666318055,17.9393999409829
1070,Mińska - Studzienna,53.1362380015362,17.9406023820617
1071,Mińska - Plonowa,53.1373009286649,17.9332429906761
1072,Mińska - Plonowa,53.1371713397046,17.9337575370725
1073,Kruszyńska - Krańcowa,53.1416653489188,17.9247169447337
1074,Kruszyńska - Krańcowa,53.1415933312122,17.9250859296872
1075,Kruszyńska - Sowia,53.1430413716045,17.9192170521137
1076,Kruszyńska - Sowia,53.1427725975993,17.9195427928349
1079,Skarżyńskiego - Twardzickiego,53.1564152732198,18.1548604590534
1080,Skarżyńskiego - Twardzickiego,53.1567024910327,18.1548815364119
1081,Bajka,53.1526456662709,18.154239781968
1082,Skarżyńskiego - Kwiatkowskiego,53.1546493331882,18.1560025324576
1084,Cmentarna - Glinki,53.1091002225837,18.0173704158753
1085,Cmentarna - Glinki,53.1090089408907,18.0174237978633
1086,Cmentarna - Gniewkowska,53.1041652549084,18.0169350736008
1087,Cmentarna - Gniewkowska,53.1047000791895,18.0171219588257
1088,Cmentarna - Dobrzyńska,53.100024952249,18.0170784321686
1089,Cmentarna - Dobrzyńska,53.1005519352091,18.0172199260107
1090,Wąbrzeska,53.0949915706671,18.0180406703579
1091,Rondo Toruńskie,53.116882893428,18.0345368877669
1092,Toruńska - Perłowa,53.1156631425774,18.0453171485235
1093,Torunska - Łuczniczki,53.1149251232774,18.0481496140717
1094,Toruńska - Łuczniczki,53.1151613719355,18.0484054825091
1095,Park Przemysłowy - Paciorkiewicza,53.0916046083009,18.0559409469045
1096,Park Przemysłowy - Paciorkiewicza,53.0907060807302,18.0548614455489
1097,Park Przemysłowy - Raczkowskiego,53.0952638230852,18.0577242966089
1098,Park Przemysłowy - Raczkowskiego,53.0954111224892,18.0572417392714
1099,Park Przemyslowy - Biurowiec,53.0945517624461,18.0654721430404
1100,Nowotoruńska - Hutnicza,53.1038537737923,18.1069277569848
1101,Nowotoruńska - Prezydenta Lecha Kaczyńskiego,53.1135648773608,18.0608470935448
1102,Nowotoruńska - Prezydenta Lecha Kaczyńskiego,53.1139241113107,18.0577189946567
1103,Smoleńska - Kielecka,53.1130490484759,18.0836028947448
1104,Kielecka - Smoleńska,53.1131968408327,18.0831053150333
1105,Smoleńska - Budowlana,53.112398759468,18.0885631407995
1106,Smoleńska - Pińczowska,53.1116637167678,18.0919329345239
1107,Smoleńska - Pińczowska,53.1119639749934,18.0928362826129
1108,Objazdowa - Nowotoruńska,53.1100314888599,18.0910685008626
1109,Objazdowa - Nowotoruńska,53.1096291117475,18.0909798412673
1111,Plac Kościeleckich,53.1205179236802,18.0047022349569
1112,Nowotoruńska - Objazdowa,53.1072439215049,18.100387737409
1113,Nowotoruńska - Objazdowa,53.1068358700668,18.1022412874184
1115,Toruńska - Sporna,53.118162821,18.0878854473722
1117,Błonie,53.1149277593134,17.9608187423781
1119,Tatrzańskie,53.1698038864081,18.162727713849
1123,Wyścigowa,53.1253594037751,18.077039565767
1124,Rondo Kujawskie,53.1152938598579,18.0075212718146
1125,Kapuściska,53.1023879152745,18.059754038483
1128,Rycerska,53.1372475504143,17.9988719493265
1129,Dworzec Główny,53.1348849633937,17.9941316162682
1132,Fordońska - Wyścigowa,53.1247011352007,18.0760656108799
1133,Barwna,53.1246989991415,17.9631352346508
1143,Rycerska,53.1373930083724,17.9991662149346
1145,Rycerska,53.1373712914906,17.9993142416487
1147,Rycerska,53.1372853393056,17.9987998131037
1148,Rycerska,53.137202933357,17.9995716772863
1150,Rycerska,53.1372859834811,17.9994877430862
1151,Rycerska,53.137498041816,17.9996371135947
1159,Plątnowska - Otorowska,53.0890148095637,18.1302661468589
1160,Plątnowska - Otorowska,53.0892371917459,18.1307005585831
1164,Inwalidów - Harcerska,53.1289197660893,18.0829756630551
1165,Inwalidów - Wyczółkowskiego,53.1293376226583,18.0765614697243
1166,Inwalidów - Makrum,53.1303858158228,18.0690557877298
1204,Śniadeckich - Gdańska,53.1285671596336,18.0053837596373
1214,Dworcowa/Matejki,53.1303730297783,17.9961800552229
1215,Dworcowa/Matejki,53.1297334989993,17.9955075739253
1221,Nowotoruńska - Hutnicza,53.1046608241886,18.1066721644853
1222,Garbary,53.1265964010913,17.9918805795182
1223,Garbary,53.1263211174602,17.9917418432063
1224,Dworzec Główny,53.1347399416091,17.9931047132442
1226,Dworzec Główny,53.1347021561466,17.9931768504238
1228,Garbary,53.126745692372,17.9913078940158
1233,Park Przemyslowy - Falkowskiego,53.0871940420338,18.0616925925898
1234,Park Przemysłowy - Falkowskiego,53.0864868753463,18.0626132416228
1235,Park Przemyslowy - Petersona,53.0840707264662,18.0729563847109
1236,Park Przemysłowy - Paciorkiewicza,53.0898014240407,18.056470349398
1237,Park Przemysłowy - Petersona,53.0842860772777,18.0715826983041
1238,Park Przemysłowy - Gamma,53.0789921574833,18.0752974705569
1239,Park Przemysłowy - Gamma,53.0799433730852,18.0757237463817
1240,Park Przemysłowy - Exploseum,53.0728758622576,18.0819390370506
1241,Wyszyńskiego - Powstańców Wielkopolskich,53.1295902977548,18.0373316606724
1247,Toruńska/Hala,53.1177076288811,18.0282872375472
1254,Toruńska/Hala,53.1176877762179,18.0283605778199
1257,Mokra - koniec,53.1121361521775,18.0723133898495
1258,Pod Skarpą - Żemojtela,53.1553524878341,18.1139543236046
1259,Pod Skarpą - Żemojtela,53.1551620271766,18.1143594285816
1260,Pod Skarpą - Stamma,53.1574535440425,18.1034090536767
1261,Pod Skarpą - Stamma,53.1573969617547,18.1035096991837
1263,Kamienna - Fabryczna,53.1299450890748,18.0645238856704
1264,Kamienna - Fabryczna,53.1293879294975,18.0669512142766
1265,Chodkiewicza - Gdańska,53.1343293617045,18.012933750951
1267,Schulza - Stawowa,53.1172676033085,17.9560471568039
1268,Schulza - Stawowa,53.1172047623455,17.956042842603
1269,Stawowa - Władysława IV,53.1202252715584,17.9647556069229
1270,Stawowa - Władysława IV,53.1200624611013,17.964071739803
1271,Wysoka - Koszarowa,53.1223766939732,17.9751137503601
1272,Połtyna - Szubińska,53.1219335106935,17.9762939588684
1273,Opławiec - Soboczyńskiego,53.1819789489898,17.9574595777651
1274,Opławiec - Soboczyńskiego,53.1811661102661,17.9572389561374
1275,Wzgórze Wolności,53.1152959312418,18.0170273446252
1276,Dworzec Autobusowy,53.1239636453162,18.019204513007
1277,Ugory - Solskiego,53.1147575796244,17.9984862001714
1278,Stawowa - XVI Pułku Ułanów Wielkopolskich,53.1220580427004,17.9705921919554
1279,Kolbego - Dzięciołowa,53.152021820216,17.9182409884224
1280,Kolbego  - Dzięciołowa,53.1514151983317,17.9184092451725
1281,Osielsko - Myślęcinek,53.1751140482634,18.0562048036331
1282,Osielsko - Gmina,53.1874984746171,18.0711745139321
1283,Niemcz - Kasprowicza,53.1786745832473,18.0397231719801
1284,Niemcz - Słowackiego,53.1770441127448,18.0398323290874
1285,Niemcz - Mickiewicza,53.1813698028572,18.0391205103833
1286,Niemcz - Mickiewicza,53.1810766304141,18.0389800128447
1287,Niemcz - Pod Wierzbami,53.1830653043983,18.0336416505785
1288,Niemcz - Urocza,53.182544827843,18.033245612951
1289,Niemcz - Malczewskiego,53.1893260283807,18.0395637767026
1290,Niemcz - Rutkiewicza,53.1885208158364,18.0394019793777
1291,Niemcz - Krzyszkowiaka,53.194290219027,18.0402596068052
1292,Niemcz - Krzyszkowiaka,53.1936847811199,18.0400220760415
1293,Jagodowo - Polna,53.2039944956399,18.0451406616995
1294,Jagodowo - Polna,53.2045632500713,18.0454056803783
1295,Żołędowo - Koronowska,53.2133401617154,18.053129504915
1297,Żołędowo - Szkoła,53.2200951583718,18.0593787983491
1298,Żołędowo - Szkoła,53.2191781466095,18.0586691336647
1299,Żołędowo - Przyjazna,53.2182165774887,18.0778381281925
1300,Żołędowo - Przyjazna,53.2182980499864,18.0774694092134
1301,Żołędowo - Augustowska,53.2133865985762,18.0914088785856
1302,Białe Błota - Chlebowa,53.0974773400231,17.9213731946926
1303,Osielsko - Myślęcinek,53.1746663006992,18.0550803440594
1304,Osielsko - Młyn,53.1815036752211,18.0644136934771
1305,Osielsko - Młyn,53.1811099981206,18.063637131144
1306,Osielsko - Kwiatowa,53.1863888670866,18.0761854477796
1307,Osielsko - Kwiatowa,53.1859018642255,18.0793693882102
1308,Osielsko - Leśna,53.1857149205412,18.0865870865178
1309,Osielsko - Leśna,53.1857408489021,18.0835048737551
1310,Osielsko - Wiązowa,53.1857926915593,18.0894821317409
1312,Osielsko - Centralna,53.1878136223853,18.0968440247423
1313,Osielsko - Centralna,53.1869484265741,18.0969163787232
1314,Niwy,53.1919212513512,18.0986525988748
1315,Białe Błota - Chlebowa,53.0980191103999,17.9223810314003
1316,Białe Błota - Czerska,53.0942785680497,17.915404919394
1317,Białe Błota - Czekoladowa,53.095234689657,17.9174863818678
1318,Białe Błota - Modra,53.0901192763905,17.9053097686851
1319,Białe Błota - Modra,53.0902412889028,17.9065727286353
1320,Białe Błota - Kruszyńska,53.0869319598938,17.9036312008451
1321,Białe Błota - Kruszyńska,53.0874614068748,17.90330839181
1322,Ciele - Pogodna,53.0765116785566,17.9050200796825
1323,Ciele - Pogodna,53.0767097894455,17.9053768761679
1324,Ciele - Makowa,53.07314605752,17.8992239685638
1325,Ciele - Makowa,53.0735225412436,17.9000107839849
1326,Ciele - Ogrody,53.0690865651437,17.8953231311938
1327,Ciele - Kościelna,53.072252645585,17.9206647053252
1328,Ciele - Kościelna,53.0732738403102,17.9186285201759
1329,Zielonka - Bocianowo,53.0627889132815,17.9423263089615
1330,Zielonka - Orzechowa,53.0580524538768,17.9624972080325
1331,Zielonka - Orzechowa,53.0584936259478,17.9613930803588
1332,Przyłęki - Biznesowa,53.0491118236442,17.9723000237456
1333,Przyłęki - Biznesowa,53.048031908129,17.9719719733937
1334,Przyłęki - Młyńska,53.0411851450813,17.967785452336
1335,Przyłęki - Kościół,53.0397287234616,17.9717286879137
1336,Przyłęki - Kościół,53.0398973481559,17.9710987275024
1337,Przyłeki - Cicha,53.0380802702953,17.9833270707937
1338,Przyłęki - Cicha,53.0382291323562,17.9827704106184
1339,Przyłęki - Wodna,53.0363393752806,17.9896219545269
1340,Przyłęki - Wodna,53.0365843928456,17.9891764263961
1341,Osielsko - Wiązowa,53.1858641122669,18.0895022408686
1342,Stroma - Orla,53.116514043386,17.9858589173706
1343,Skorupki - Orla,53.1173452578368,17.9910732908739
1344,Ugory - Nowodworska,53.1172065558903,17.9944416814234
1345,Baczyńskiego - Wojska Polskiego,53.1041618745037,18.0575639200638
1346,Baczyńskiego - Sandomierska,53.1059692152286,18.0593210407777
1347,Łukasiewicza,53.1063741102378,18.0554644886216
1348,Ugory - Nowodworska,53.1172753666884,17.9945660433284
1349,Skorupki - Orla,53.1173411581233,17.9908786943339
1350,Stroma - Orla,53.1166120417455,17.9858956066087
1360,Prezydenta Lecha Kaczyńskiego - Sandomierska,53.1109102954131,18.0556667589686
1361,Prezydenta Lecha Kaczyńskiego - Sandomierska,53.1116590476556,18.056975295481
1363,Kazimierza Wielkiego/Toruńska,53.1163336341468,18.0577406372088
1364,Kazimierza Wielkiego/Toruńska,53.1162405720322,18.0582123301316
1365,Most Kazimierza Wielkiego,53.1200910717081,18.0567518530181
1367,Zbożowy Rynek,53.1198149484525,18.0054753115252
1372,Maksymilianowo - Ptasia,53.2075476601429,18.0345332419987
1373,Maksymilianowo - Ptasia,53.207319647668,18.0350114121541
1374,Maksymilianowo - Główna,53.2112587285386,18.0314701374286
1375,Maksymilianowo - Główna,53.2121886980444,18.0320301901404
1376,Maksymilianowo - Szkoła,53.215745461187,18.0410157893546
1377,Maksymilianowo - Szkoła,53.2157261701281,18.0407147910757
1378,Żołędowo - Koronowska,53.2138308204555,18.0508273969399
1379,Drzewce,53.1066763615826,17.8554709339527
1381,Łochowo - Sosnowa nż.,53.1157513758004,17.8452667113465
1382,Drzewce,53.1063797010802,17.8550926434171
1383,Murowaniec - Kalinowskiego,53.0932856126151,17.8536425442467
1384,Łochowo - Sosnowa nż.,53.1158337158609,17.8459596673731
1386,Skorupki - Jordanowska,53.1156618279604,17.9889983648034
1387,Skorupki - Jordanowska,53.1158825039968,17.9891631486518
1398,Łochowo,53.1220331521307,17.8390299189625
1399,Ciele - Źródlana,53.0701505619759,17.9267931444261
1400,Ciele - Źródlana,53.0696473950092,17.9282370988279
1401,Fordońska - Gajowa,53.1209784991627,18.0403714672886
1403,Piaski,53.1708176538519,17.9698012356273
1404,Smukalska - Sanktuarium nż,53.1785025923601,17.9681470790177
1405,Smukalska - Sanktuarium nż,53.1777051217097,17.9680321123476
1406,Smukalska - Agrestowa,53.1836931063342,17.9673530438985
1407,Smukalska - Agrestowa,53.1846966773068,17.9674972278406
1408,Smukalska - Baranowskiego nż,53.1876995947474,17.9686030031883
1409,Smukalska - Baranowskiego nż,53.1875017264567,17.9686042975577
1411,Wyścigowa,53.1265129806992,18.0797234386023
1413,Dworzec Wschód,53.1273862608918,18.0807278339414
1414,Dworzec Wschód,53.1264283823047,18.0868039572817
1415,Sporna - Toruńska,53.1194095997277,18.0873171546011
1416,Toruńska - Sporna,53.1181955592186,18.087663579511
1417,Skandynawska - Ikea,53.1321533463952,18.1186600265106
1419,Jagodowo - Letnia,53.2007273002965,18.0431416719121
1420,Jagodowo - Letnia,53.2005620974857,18.04292029241
1421,Rondo Toruńskie (Bełzy),53.1161394754571,18.0358297070869
1422,Bełzy - Spokojna,53.113658821259,18.0414090131307
1423,Spokojna,53.1142692673164,18.0428570710687
1424,Bełzy - Szarych Szeregów,53.1096268779668,18.0439936309335
1425,Bełzy - Szarych Szeregów,53.1097498774043,18.0441069368624
1426,Stryszek,53.0469431306175,17.9999217036801
1427,Stryszek,53.0480818436647,17.9989860727288
1428,Brzoza,53.0312747064382,18.0170920925088
1429,Brzoza,53.0317187333211,18.0169590176637
1430,Chmielniki I,53.0117382452861,18.0426418560831
1431,Chmielniki I,53.0124473647936,18.0419909636562
1432,Chmielniki - Plaża,53.0041680475592,18.0492351179592
1433,Chmielniki - Plaża,53.0050380220931,18.0493262954081
1435,Prądocin,52.9978898975571,18.0569757588466
1436,Prądocin,52.9987381594927,18.0558134153106
1438,Januszkowo,52.9855110272879,18.0783939448016
1439,Januszkowo,52.9848509524147,18.079226166935
1440,Nowa Wieś Wielka (koniec),52.9701361290368,18.0907370349688
1441,Nowa Wieś Wielka (początek),52.9706934389453,18.0907470358434
1446,Kruszyn Kraj. - Mroźna,53.0656439999352,17.8741321550252
1449,Ciele - Ogrody,53.0684068607725,17.8962778002866
1460,Fordońska - Łowicka,53.1353172416718,18.1224932241436
1464,Więcka - Łowicka,53.1318079639473,18.1232553465492
1468,Akademicka - Kaliskiego,53.1476345665515,18.1284283543868
1469,Kaliskiego - Akademicka,53.1471317027829,18.1297679066942
1470,3 Maja - Markwarta,53.1265830092537,18.0098798189041
1472,Nowotoruńska - Kielecka,53.1117661887002,18.0817474668375
1473,Chemiczna - Dachtery,53.1063218772326,18.0798037852973
1474,Chemiczna - Dachtery,53.1063121036394,18.0812227257758
1488,Toruńska - Stomil (brama),53.1168791770888,18.0943701896797
1489,Rondo Maczka,53.1363477363761,17.96444579183
1491,Dworzec Wschód,53.1272156062471,18.0834964753203
1492,Dworzec Wschód,53.1278390584827,18.0826889323481
1493,Dworzec Wschód,53.1278585577871,18.0826305247536
1494,Akademicka - Rejewskiego,53.1422269809488,18.1093248249895
1495,Akademicka - Rejewskiego,53.1422636650863,18.1092975643405
1496,Akademicka - Rejewskiego,53.1423190777424,18.1088977522946
1497,Akademicka - Romanowskiej,53.1443704810152,18.1171078156997
1498,Akademicka - Romanowskiej,53.144416533861,18.1170662823536
1499,Przylesie,53.1462380361009,18.1240787994442
1500,Przylesie,53.1459224669039,18.1227396153835
1501,Przylesie,53.1461634443787,18.1245221092757
1502,Przylesie,53.1459513891755,18.1223229047052
1503,Przylesie,53.14694210293616, 18.123098568935195
1511,Akademicka - Kaliskiego (UTP),53.1479211216783,18.1301843553241
1512,Akademicka - Kaliskiego,53.1475720751435,18.1287528869468
1513,Akademicka - Igrzyskowa,53.1486536438001,18.1378814729342
1514,Akademicka - Igrzyskowa,53.1486981286295,18.137899677429
1515,Andersa - Kleeberga,53.1509119185282,18.1456755223413
1517,Kleeberga - Andersa,53.1509940877364,18.1449485242803
1518,Bajka,53.151781891114,18.1535780303822
1519,Bajka,53.1518361402916,18.1535670494158
1520,Bajka,53.1512988067789,18.154500009475
1522,Andersa - Wolna,53.1575079014203,18.1634987334399
1523,Andersa - Wolna,53.1575274403701,18.1634403243951
1524,Andersa - Wolna,53.158080347068,18.1636156689876
1525,Andersa - Wolna,53.1576816115124,18.1633918223298
1526,Niepodległości,53.1599694760558,18.1662983407762
1527,Niepodległości,53.1599975944989,18.1662555242069
1528,Niepodległości pętla,53.1608182391447,18.1695479569601
1531,Andersa - Gieryna,53.1656006328147,18.1713073211213
1532,Andersa - Gieryna,53.1656112002855,18.1712482426375
1535,Łoskoń,53.1732646971727,18.1735942306714
1536,Łoskoń,53.1732752659165,18.1735351423361
1539,Łoskoń Zajezdnia,53.1757416596373,18.1727743441134
1541,Kamienna - Gdańska,53.1370161882049,18.0165613152628
1542,Kamienna - Gdańska,53.1372470409935,18.0163232814584
1543,Dworzec Leśne,53.1431641496139,18.03224772675
1544,Dworzec Leśne,53.1426638115593,18.0328256542455
1545,Dworzec Leśne,53.1426693631928,18.0329606499066
1547,Pileckiego - Żeglarska,53.1383608031982,17.9763834260121
1548,Artyleryjska - Zaświat,53.1392567591452,18.0040666944089
1549,Artyleryjska - Zaświat,53.1395028577859,18.0021547081148
1550,Plac Piastowski,53.1320876052169,17.9991553018743
1551,Śniadeckich - Sienkiewicza,53.130514223776,18.0002118828708
1552,Jagiellońska - Łużycka,53.1217649900135,18.0278700550846
1553,Jagiellońska - Łużycka,53.1220891862036,18.0271454154165
1554,Rondo Maczka,53.1369314461323,17.9659215698722
1555,Wilczak,53.1295513980098,17.9564123458997
1556,Wilczak,53.1293155414928,17.9572184544848
1557,Tor Regatowy - koniec,53.1276175614894,18.1280346289903
1558,Romanowskiej - Akademicka,53.1454616492965,18.1169924523389
1562,Wyzwolenia - Geodetów,53.1739754156212,18.164127414545
1563,Geodetów - Wyzwolenia,53.1740179859347,18.164893890888
1564,Geodetów - Pienińska,53.1737850513042,18.1695914639682
1565,Schulza - Szubińska,53.1150837506472,17.9588864679896
1566,Dworzec Błonie,53.1191065495314,17.9533333812779
1567,Zbożowy Rynek,53.119121927766,18.0069217066159
1568,Zbożowy Rynek,53.1197519657405,18.0061884164349
1569,Babia Wieś,53.1192301729807,18.0154345596586
1570,Babia Wieś,53.1193096244418,18.0162024640763
1571,Toruńska - Żupy,53.1179724608256,18.0242401685426
1572,Toruńska - Żupy,53.1180508467346,18.0246940974497
1573,Rondo Toruńskie,53.1173345597254,18.0323415852895
1574,Wojska Polskiego - Hechlińskiego,53.1011460522826,18.0643276476228
1575,Wojska Polskiego - Hechlińskiego,53.1010668017047,18.0642622437573
1576,Wojska Polskiego - Dziatkiewicza,53.0991430739187,18.0691157226078
1577,Wojska Polskiego - Dziatkiewicza,53.0989253316409,18.0691898572556
1578,Wojska Polskiego - Petersona,53.0953239007123,18.078748729739
1579,Wojska Polskiego - Petersona,53.0950594371513,18.079237782178
1580,Wulffa - Eberhardta,53.0920318065066,18.0874468273259
1581,Wulffa - Eberhardta,53.0921967899649,18.0869806091984
1582,Hutnicza - Eberhardta,53.0935291060199,18.1024783565512
1583,Hutnicza - Eberhardta,53.0933480278722,18.102525076026
1584,Dachtery - Chemiczna,53.1066592948416,18.0806647589366
1585,Kielecka - Smoleńska,53.1141435991917,18.0830086942417
1586,Kielecka - Smoleńska,53.1135698934846,18.082937726056
1587,Kielecka - Toruńska,53.1178483132519,18.0844099940489
1588,Dworzec Bielawy (Inwalidów),53.1324358570497,18.0547428536383
1591,Andersa - Kleeberga,53.1509575862135,18.1456489444543
1593,Glinki,53.0983286169179,18.0388476176677
1594,Glinki,53.0983097315527,18.0392347420903
1596,Prądocińska,53.0645146201993,18.1331160244154
1597,Toruńska - Stomil (brama),53.1170078980269,18.0939160733459
1599,Ostromecko tech.,53.1506518771875,18.2106251090311
1600,Orląt Lwowskich - Pelplińska,53.163670705111,18.1627252901863
1601,Orląt Lwowskich - Pelplińska,53.1638159004896,18.162676119051
1608,Łoskoń,53.1735602129239,18.1719546838275
1609,Wyzwolenia - Geodetów,53.1744463482691,18.1643417093289
1610,Jarużyn - Krakowska,53.1912177679395,18.1541977735887
1611,Jarużyn - Rajska,53.2001857238345,18.1561597136757
1612,Strzelce Górne - Diamentowa,53.2044601717252,18.1560546749228
1613,Strzelce Górne - Wilcza,53.2090474514554,18.1553434957403
1614,Strzelce Górne - Szkolna,53.211278128569,18.1590579101894
1615,Strzelce Górne - Gołębia,53.2105070991979,18.1664163439064
1616,Strzelce Dolne II,53.2062713878238,18.1765439901678
1617,Strzelce Dolne III,53.1981066541356,18.1758349208006
1618,Wyzwolenia - Brzegowa,53.1816702647377,18.1706673407734
1620,Tatrzańskie,53.1694780758789,18.1634819593658
1621,Witebska - Gazbud,53.1211046167478,18.1202363919585
1622,Witebska - Gazbud,53.1211522359962,18.1201352013749
1623,Przemysłowa - Przejazd,53.1212016895122,18.1148169802193
1624,Przemysłowa - Przejazd,53.1211759337826,18.1147702699788
1625,Toruńska - Spokojna,53.1158464563407,18.0423706588524
1634,Schulza - Szubińska,53.1150721753397,17.9589902956402
1635,Bielawy,53.1323899049842,18.0333425728837
1638,Trzciniec - Sarnia,53.0868561470703,17.9469262130217
1639,Trzciniec - Sarnia,53.0871359245053,17.9468855944838
1640,al. Żołnierzy Wyklętych - Ciele,53.0730139135364,17.9207909153936
1642,Matki Teresy z Kalkuty - Romanowskiej,53.1456694549286,18.1090501826028
1643,Matki Teresy z Kalkuty - Romanowskiej,53.1471333174426,18.1091260910398
1644,Matki Teresy z Kalkuty - Rydygiera,53.1515014877428,18.1095615980201
1645,Matki Teresy z Kalkuty - Rydygiera,53.1525547961845,18.1102062420013
1646,Trybowskiego - Matki Teresy z Kalkuty,53.1538196232482,18.109295399967
1647,Trybowskiego - Matki Teresy z Kalkuty,53.1539870402494,18.1087390166296
1648,Trybowskiego - Majtkowskiego,53.1546686282352,18.1029537060492
1649,Trybowskiego - Majtkowskiego,53.1546113216871,18.1041164864169
1650,Trybowskiego - Jasiniecka,53.155270035909,18.0981648101477
1651,Jasiniecka - Trybowskiego,53.155744954678,18.0978848555038
1652,Jasiniecka - Pod Skarpą,53.1574761980485,18.0983986029089
1653,Jasiniecka - Pod Skarpą,53.1576498534549,18.0982914264482
1655,Eskulapa,53.1560827318214,18.1104464941302
1656,Armii Krajowej - Jeździecka,53.1721926217886,18.053003731893
1657,Niwy - Bocheńska,53.1966680851572,18.1004328253173
1658,Niwy - Bocheńska,53.1959702724282,18.0999481579543
1659,Niwy - Zakopiańska,53.2002426711209,18.1057829837315
1660,Niwy - Zakopiańska,53.19998157498,18.1051051349938
1661,Wilcze - Krakowska,53.2011674396731,18.1141020759884
1662,Wilcze - Krakowska,53.2011244583863,18.1150574685245
1663,Jarużyn - Bociania,53.2011527890559,18.1314590966616
1664,Jarużyn - Bociania,53.2011938033341,18.1312673902385
1665,Jarużyn - Nowowiejska,53.2044465818137,18.1330774002024
1666,Jarużyn - Nowowiejska,53.2051176127627,18.1321827625087
1667,Strzelce Górne - Jaworowa,53.2075653674429,18.1297251121261
1668,Strzelce Górne - Jaworowa,53.2075651000489,18.1290510356736
1669,Wilcze - Gdyńska,53.2090325850369,18.1259074849419
1670,Tatrzańskie,53.1694886395666,18.1634228735053
1671,Tatrzańskie,53.1694934040625,18.1632436335693
1672,Jarużyn - Strzelce Górne - Strzelce Dolne,53.1694679092286,18.1635261085458
1678,Pelplińska - Targowisko,53.1589474309798,18.1563629650372
1679,Pelplińska - Targowisko,53.1590874745043,18.1565079080022
1680,Wyzwolenia - Brzegowa,53.1817903475435,18.1708857883144
1681,Pod Skarpą - Przemysła II,53.1603898585444,18.0918306240841
1682,Pod Skarpą - Przemysła II,53.1602622531152,18.0918962579794
1683,Nekla - Tęczowa,53.2386338692594,18.0783896028039
1684,Nekla - Tęczowa,53.2382141483968,18.0775800031787
1685,Nekla - Leśna,53.2385310072831,18.0847977995739
1686,Nekla - Leśna,53.2385709108495,18.0853403008574
1687,Nekla - Makowa,53.2384941858949,18.100414431106
1688,Nekla - Ciepła,53.2468821970229,18.0852640215307
1689,Nekla - Ciepła,53.2465176076868,18.0847580118904
1690,Nekla - Akacjowa,53.2513668104322,18.0888406952262
1691,Strzelce Dolne III,53.1970202425071,18.1757695204705
1692,Strzelce Dolne II,53.206376697979,18.176641658585
1693,Strzelce Górne - Gołębia,53.2107314247691,18.1657587855051
1694,Strzelce Górne - Gądecka,53.2120795492422,18.1566450978213
1695,Strzelce Górne - Gądecka,53.2127478077342,18.1572185996688
1696,Gądecz,53.2226741831747,18.1731885086781
1697,Gądecz,53.2220175632308,18.1721809329573
1698,Hutna Wieś,53.2316858409515,18.1869696865916
1699,Hutna Wieś,53.2314680978247,18.18636898262
1700,Włóki,53.245519386039,18.2053148990494
1701,Włóki,53.2454801487251,18.2051020672982
1702,Trzęsacz I,53.2419842577038,18.2196821212012
1703,Trzęsacz I,53.2420042298253,18.2196086643733
1704,Trzęsacz II,53.2481783829742,18.2254103345257
1705,Trzęsacz II,53.2480542963824,18.2250111595415
1706,Kozielec I,53.2533045915711,18.228060608965
1707,Kozielec I,53.253275284651,18.2284782730706
1708,Kozielec pętla,53.2458073009734,18.2507647142224
1709,Czarnówczyn,53.1695519053616,18.0887783148279
1710,Czarnówczyn,53.1679854111074,18.0888453040049
1711,Osielsko - Gryczana,53.1750797804442,18.0878436036614
1712,Osielsko - Gryczana,53.1743870701668,18.0878536881143
1713,Osielsko - Cisowa,53.1798301291618,18.0842930759048
1714,Osielsko - Cisowa,53.1797231900235,18.0842554593524
1716,Osielsko - Lipowa,53.1849962901108,18.0837807788539
1719,Żołędowo - Tulipanowa,53.2084374884267,18.0619478630692
1720,Żołędowo - Tulipanowa,53.2081448643725,18.0621366890572
1721,Maksymilianowo - Świetlica,53.2175809450751,18.03639655116
1722,Bożenkowo - Osiedlowa,53.2288422221584,17.9786136278417
1723,Bożenkowo - Bożenkowska,53.2302660277324,17.9712942761366
1724,Bożenkowo - Bożenkowska,53.230199810408,17.9710648927761
1725,Bożenkowo - Harcerska,53.2340172070872,17.9701603815424
1727,Przylesie,53.1469382681464,18.1230975719241
1728,Zamczysko - pętla,53.1600548574515,18.0794327163736
1738,Kapuściska,53.1023446327759,18.060737143819
1739,Szarych Szeregów,53.1078575333879,18.0435547579975
1741,Szarych Szeregów,53.1076984421637,18.0437975623861
1742,Szarych Szeregów,53.1070446958871,18.0457986481978
1743,Szarych Szeregów,53.1064260773074,18.045725016585
1744,Szarych Szeregów,53.1080198751804,18.0435363418403
1746,Magnuszewska,53.1038804703383,18.0274346490047
1748,Grunwaldzka - Czarna Droga,53.1309995531354,17.9751566090344
1749,Grunwaldzka - Czarna Droga,53.1319038957548,17.9735145953113
1752,Nowotoruńska - Plątnowska,53.0843878796808,18.1184591793777
1759,Ciele - Myśliwska,53.0705082931002,17.9169931195674
1760,Ciele - Myśliwska,53.0705288081603,17.9168899932356
1761,Wzgórze Wolności,53.1140670763507,18.0161939452139
1762,Trasa Uniwersytecka - Ujejskiego,53.1111742782522,18.0160810093856
1763,Trasa Uniwersytecka - Ujejskiego,53.1122248388126,18.0164983303817
1770,Osielsko - Kolonijna,53.1896306340099,18.0704436240898
1771,Osielsko - Kolonijna,53.1898367017148,18.0704733312855
1772,Osielsko - Jana Pawła II,53.1963992466982,18.0754351493692
1773,Osielsko - Jana Pawła II,53.1959955133664,18.0747024125058
1774,Osielsko - Kąty,53.1999523357253,18.0719157176251
1775,Osielsko - Kąty,53.1990722060993,18.072916018486
1776,Bronikowskiego - Śluzowa,53.1341589550657,17.9566391754972
1777,Bronikowskiego - Śluzowa,53.1344150922654,17.9600809816379
1780,Lisi Ogon - Bydgoska 10-12,53.1271362953744,17.8840818688437
1781,Lisi Ogon - Potulicka - Szlachecka,53.1271237906826,17.8764266092928
1782,Lisi Ogon - Potulicka - Dworska,53.1270856235297,17.8772612597223
1783,Lisi Ogon - Potulicka 32 - Hubertusa,53.1283567435287,17.863337672233
1784,Lisi Ogon - Potulicka - Wyczynowa,53.128345236381,17.864562840137
1785,Łochowo - Szosa Bydgoska - Kasztanowa,53.1266081981738,17.8533993527059
1786,Łochowo - Szosa Bydgoska - Kwiatowa,53.1260457073967,17.8521063036558
1787,Łochowo - Szosa Bydgoska - Grabowa,53.1226921963851,17.8392976038246
1788,Łochowo - Wierzbowa,53.1221173654468,17.8381385831707
1789,Łochowo - Szosa Nakielska - Czereśniowa,53.1237915818266,17.8305204690142
1790,Łochowo - Szosa Nakielska - Topolowa,53.1239278267598,17.8297072457459
1791,Łochowo - Nakielska 34 - Cmentarz,53.1283187286229,17.8136702286042
1792,Łochowo - Nakielska 33,53.1282389821219,17.8136201652598
1793,Łochowice - Nakielska - Kanałowa,53.1301500712517,17.8008425261776
1794,Łochowice - Nakielska - Kurkowa Sklep,53.1301251168719,17.8019024090979
1795,Łochowice - Nakielska - Zajęcza (pętla),53.1287421794053,17.795323953018
1796,Zbożowy Rynek,53.1200119907528,18.0058627680374
1797,Zbożowy Rynek,53.1199072846807,18.0057358735571
1804,Plac Poznański,53.1209382229001,17.9862255436979
1805,Gdańska - Las (nż.),53.1549093535902,18.0329263617524
1806,Gdańska - Las (nż.),53.1552625481733,18.0335347319196
1807,Myślęcinek,53.1614412453468,18.0398510350925
1808,Myślęcinek,53.1614204198106,18.0396101610358
1810,Królowej Jadwigi - Astoria,53.1305293027625,17.9935444917218
1814,Grudziądzka - Urząd Miasta,53.1213156552522,17.9919620250424
1815,Szczerby - Chemiczna,53.106177579393,18.0957531828396
1816,Park Przemyslowy - Biurowiec,53.094508282016,18.0650656856738
1817,Park Przemyslowy - Frankiego,53.0916980615697,18.0673306531574
1818,Park Przemyslowy - Frankiego,53.091353366297,18.0670969828789
1819,Park Przemyslowy - Falkowskiego,53.0865033973265,18.0658108548058
1820,Park Przemyslowy - Falkowskiego,53.0865693074276,18.065696049515
1821,Glinki - Polon,53.0941207319303,18.0461997355181
1822,Park Przemysłowy - Michałowskiego,53.0855722375829,18.0771410513279
1823,Park Przemysłowy - Michałowskiego,53.0856299536127,18.0769958077713
1824,Park Przemysłowy - Trzecia,53.088633365441,18.0780467203831
1825,Park Przemysłowy - Trzecia,53.0887191694041,18.0778586613493
1826,Maksymilianowo - Jagodowa,53.2050611779512,18.0445722984511
1827,Hutnicza - Świetlicowa,53.098328324857,18.1046616687467
1828,Hutnicza - Świetlicowa,53.0979493610737,18.104365426766
1829,Kruszyn Kraj. - Zbożowa,53.0645882175062,17.8806004283797
1830,Chmurna - Nad Torem,53.1508103812368,17.9607306861934
1831,Siedlecka - Chmielna,53.1533265350164,17.9604401829783
1832,Siedlecka - Chmielna,53.1529652182648,17.9605050642115
1833,Siedlecka - Łubinowa,53.1573860084936,17.9581165021595
1834,Siedlecka - Łubinowa,53.1579624724089,17.9584404247162
1835,Siedlecka - Wodociągi,53.1602726818653,17.9570284062769
1836,Siedlecka - Wodociągi,53.1605995014812,17.9565421789991
1841,Bałtycka - Skłodowskiej Curie,53.1253961672424,18.0476651826102
1842,Bałtycka - Fordońska,53.1217293687291,18.0465236022548
1843,Most Kazimierza Wielkiego,53.1205921262416,18.0558008331117
1844,Drzewce (pętla),53.1093738169381,17.8569797527786
1846,Chemiczna - Ogrodnictwo II,53.1090569493809,18.0734985075123
1848,Żołędowo - Klonowa,53.212307927097,18.0576100956537
1849,Żołędowo - Klonowa,53.2119236263204,18.0578673349848
