stop_id,stop_name,stop_lat,stop_lon
1,OLSZTYN - RYNEK 01,50.750226,19.268520
2,OLSZTYN - ŻWIRKI I WIGURY 01,50.753000,19.260067
3,ODRZYKOŃ 01,50.760278,19.223006
4,KRĘCIWILK 01,50.7635498,19.1827063
5,WEYSSENHOFF 01,50.765474,19.177395
6,BUGAJSKA 01,50.767675,19.164234
